,City,Lat,Lng,Max Temp,Humidity,Cloudiness,Wind Speed,Country,Date
0,Coyhaique,-45.5752,-72.0662,7.34,93,75,1.03,CL,1662874424
1,Punta Arenas,-53.15,-70.9167,4.06,81,0,3.6,CL,1662874425
2,Northam,51.0333,-4.2167,15.9,88,97,3.72,GB,1662874425
3,Nome,64.5011,-165.4064,8.04,76,75,4.12,US,1662874426
4,Fuerte Olimpo,-21.0415,-57.8738,16.16,48,7,2.25,PY,1662874427
5,Whithorn,18.2604,-78.0378,25.59,89,9,1.44,JM,1662874428
6,Kalavai,12.7703,79.42,32.37,49,100,6.24,IN,1662874429
7,Sharjah city,25.3573,55.4033,35.16,36,0,4.63,AE,1662874429
8,Ushuaia,-54.8,-68.3,2.81,75,20,1.03,AR,1662874430
9,Bluff,-46.6,168.3333,12.67,75,3,3.98,NZ,1662874431
10,Usinsk,65.9939,57.5281,8.45,84,100,6.35,RU,1662874432
11,Vaini,-21.2,-175.2,26.09,83,20,3.6,TO,1662874432
12,Rikitea,-23.1203,-134.9692,22.83,71,16,5.91,PF,1662874433
13,Wanning,18.8003,110.3967,30.21,67,14,3.47,CN,1662874433
14,Hithadhoo,-0.6,73.0833,27.76,70,79,6.27,MV,1662874434
15,Avarua,-21.2078,-159.775,24.03,83,75,4.12,CK,1662874463
16,Palmer,42.1584,-72.3287,20.84,84,100,1.54,US,1662874285
17,Faanui,-16.4833,-151.75,25.43,75,7,7.76,PF,1662874464
18,Nikolskoye,59.7035,30.7861,8.82,65,6,2.04,RU,1662874466
19,Cabra,37.4725,-4.4421,21.65,44,94,1.16,ES,1662874467
20,Gainesville,29.6516,-82.3248,23.37,87,0,2.57,US,1662874228
21,Muros,42.7762,-9.0603,15.05,95,85,2.63,ES,1662874468
22,Puerto Ayora,-0.7393,-90.3518,19.19,83,54,1.34,EC,1662874468
23,Fare,-16.7,-151.0167,25.99,71,16,8.76,PF,1662874469
24,Iqaluit,63.7506,-68.5145,5.85,93,100,3.6,CA,1662874361
25,Balsas,-7.5325,-46.0356,24.55,37,69,1.73,BR,1662874470
26,Polunochnoye,60.8697,60.4153,8.22,68,94,1.56,RU,1662874470
27,George Town,5.4112,100.3354,28.83,73,40,2.24,MY,1662874471
28,Dhidhdhoo,6.8833,73.1,26.99,81,94,7.11,MV,1662874472
29,Port Alfred,-33.5906,26.891,14.54,87,65,1.79,ZA,1662874472
30,Mataura,-46.1927,168.8643,12.49,67,18,1.06,NZ,1662874473
31,Thompson,55.7435,-97.8558,11.09,71,40,3.09,CA,1662874474
32,Jamestown,42.097,-79.2353,19.77,74,75,1.54,US,1662874474
33,Dawson Creek,55.7666,-120.2362,14.8,44,0,2.57,CA,1662874475
34,Butaritari,3.0707,172.7902,27.71,70,15,6.41,KI,1662874476
35,Qaanaaq,77.484,-69.3632,2.89,99,100,3.8,GL,1662874477
36,Zhangaözen,43.3,52.8,16.06,39,0,3.98,KZ,1662874478
37,San Quintín,30.4833,-115.95,23.66,80,16,1.82,MX,1662874478
38,Kyra,49.5776,111.9753,14.96,67,99,0.96,RU,1662874480
39,Busselton,-33.65,115.3333,16.88,66,47,3.08,AU,1662874229
40,Kapaa,22.0752,-159.319,27.99,82,40,4.63,US,1662874482
41,Batagay,67.6333,134.6333,8.21,51,77,3.93,RU,1662874483
42,Lebu,-37.6167,-73.65,8.27,92,9,4.5,CL,1662874484
43,Provideniya,64.3833,-173.3,7.01,69,96,5.32,RU,1662874485
44,Kiunga,-6.1219,141.2906,28.92,79,99,0.9,PG,1662874486
45,Mount Isa,-20.7333,139.5,27.87,21,100,1.54,AU,1662874487
46,Duku,11.2361,4.9073,21.27,97,89,0.76,NG,1662874488
47,Albany,42.6001,-73.9662,19.7,87,100,1.09,US,1662874488
48,Tasiilaq,65.6145,-37.6368,4.09,74,87,2.28,GL,1662874489
49,Mar del Plata,-38.0023,-57.5575,7.15,86,0,2.57,AR,1662874490
50,Dikson,73.5069,80.5464,3.47,80,100,8.26,RU,1662874490
51,Henties Bay,-22.116,14.2845,12.81,93,19,1.12,NA,1662874490
52,Tuktoyaktuk,69.4541,-133.0374,4.0,81,100,4.12,CA,1662874491
53,Barrow,71.2906,-156.7887,2.01,93,100,6.69,US,1662874492
54,Yellowknife,62.456,-114.3525,10.29,66,75,9.77,CA,1662874269
55,Margate,51.3813,1.3862,14.94,81,8,1.88,GB,1662874493
56,Hambantota,6.1241,81.1185,32.19,66,20,4.63,LK,1662874494
57,Castro,-24.7911,-50.0119,13.49,98,100,2.88,BR,1662874494
58,Carnarvon,-24.8667,113.6333,23.57,43,0,4.65,AU,1662874235
59,Kulachi,31.9286,70.4592,35.52,37,0,2.05,PK,1662874496
60,Padang,-0.9492,100.3543,31.03,64,53,2.96,ID,1662874262
61,Kem',64.9555,34.5793,9.82,74,93,4.13,RU,1662874497
62,Mahébourg,-20.4081,57.7,24.16,64,40,7.2,MU,1662874499
63,Harrismith,-28.2728,29.1295,17.14,19,5,2.13,ZA,1662874500
64,Cidreira,-30.1811,-50.2056,10.14,76,0,2.3,BR,1662874502
65,Huicungo,-7.2833,-76.8,18.35,92,6,0.55,PE,1662874502
66,Kahului,20.8947,-156.47,27.01,76,20,8.23,US,1662874503
67,Cape Town,-33.9258,18.4232,12.93,93,75,2.06,ZA,1662874348
68,Tiarei,-17.5333,-149.3333,26.01,74,5,7.95,PF,1662874504
69,Mossamedes,-15.1961,12.1522,18.7,87,92,3.24,AO,1662874505
70,Chui,-33.6971,-53.4616,4.64,89,0,2.09,UY,1662874506
71,Atuona,-9.8,-139.0333,24.99,71,4,9.16,PF,1662874507
72,Tura,25.5198,90.2201,26.67,81,100,2.7,IN,1662874508
73,Cerro Largo,-28.1486,-54.7381,5.7,84,14,2.31,BR,1662874508
74,Meridian,43.6121,-116.3915,20.95,50,0,3.09,US,1662874509
75,Alofi,-19.0595,-169.9187,24.94,78,100,3.6,NU,1662874511
76,Saskylakh,71.9167,114.0833,1.69,83,100,6.04,RU,1662874512
77,Yangi Marg`ilon,40.4272,71.7189,25.4,27,30,4.12,UZ,1662874513
78,Torbay,47.6666,-52.7314,15.42,96,100,16.09,CA,1662874513
79,Jumla,29.2747,82.1838,20.22,72,98,2.03,NP,1662874514
80,Hilo,19.7297,-155.09,25.85,84,40,1.54,US,1662874515
81,Vestmannaeyjar,63.4427,-20.2734,10.9,88,100,5.69,IS,1662874515
82,Hobart,-42.8794,147.3294,12.92,56,20,7.72,AU,1662874516
83,Saint Paul Harbor,57.79,-152.4072,13.73,72,100,2.06,US,1662874332
84,Port Elizabeth,-33.918,25.5701,14.16,82,0,6.17,ZA,1662874517
85,Belmonte,-15.8631,-38.8828,19.85,76,53,2.48,BR,1662874518
86,Haicheng,40.8516,122.7475,26.97,51,2,1.31,CN,1662874518
87,Mount Gambier,-37.8333,140.7667,10.95,93,75,6.17,AU,1662874519
88,Sola,-13.8833,167.55,26.72,71,15,7.39,VU,1662874520
89,Nyurba,63.2842,118.3319,8.89,47,62,3.66,RU,1662874521
90,Aklavik,68.2191,-135.0107,6.47,95,100,1.63,CA,1662874521
91,Bredasdorp,-34.5322,20.0403,12.87,85,100,3.1,ZA,1662874522
92,Lüderitz,-26.6481,15.1594,14.56,66,19,8.44,NA,1662874522
93,Alpena,45.0617,-83.4327,19.54,94,75,0.0,US,1662874523
94,Sept-Îles,50.2001,-66.3821,13.92,99,100,1.03,CA,1662874523
95,Torrevieja,37.9787,-0.6822,23.73,83,68,1.92,ES,1662874524
96,Hermanus,-34.4187,19.2345,12.67,81,99,4.3,ZA,1662874524
97,Erzin,36.9559,36.2,27.34,57,0,1.69,TR,1662874525
98,Zhalantun,48.0,122.7167,31.99,24,100,2.88,CN,1662874526
99,Bereket,39.2446,55.5154,24.36,20,0,6.66,TM,1662874526
100,Hong Kong,22.2855,114.1577,33.87,55,5,1.34,HK,1662874413
101,Matara,5.9485,80.5353,29.11,68,60,5.93,LK,1662874527
102,Urdoma,61.7533,48.5442,9.47,72,95,2.08,RU,1662874528
103,Naze,28.3667,129.4833,28.51,78,88,4.78,JP,1662874528
104,Kyaiklat,16.4333,95.7333,26.92,81,100,3.03,MM,1662874528
105,Ostrovnoy,68.0531,39.5131,8.57,83,98,4.63,RU,1662874529
106,New Norfolk,-42.7826,147.0587,12.73,72,69,3.58,AU,1662874530
107,Ponta Delgada,37.7333,-25.6667,22.4,78,40,9.26,PT,1662874530
108,Mehamn,71.0357,27.8492,6.97,87,100,0.51,NO,1662874531
109,Saint-Philippe,-21.3585,55.7679,23.77,76,20,4.17,RE,1662874532
110,Tiksi,71.6872,128.8694,3.1,96,100,2.51,RU,1662874533
111,Pangnirtung,66.1451,-65.7125,7.77,92,100,2.76,CA,1662874533
112,Verkhnevilyuysk,63.4453,120.3167,8.8,46,49,4.11,RU,1662874533
113,Khatanga,71.9667,102.5,2.4,93,100,3.53,RU,1662874534
114,Adrar,20.5022,-10.0711,32.39,31,28,3.17,MR,1662874534
115,Fethiye,36.6217,29.1164,23.93,26,0,0.9,TR,1662874535
116,Turukhansk,65.8167,87.9833,7.23,46,52,1.53,RU,1662874536
117,Leh,34.1667,77.5833,17.49,37,17,3.21,IN,1662874536
118,Talnakh,69.4865,88.3972,4.56,99,100,3.15,RU,1662874537
119,Wentzville,38.8114,-90.8529,22.27,93,67,0.45,US,1662874470
120,Dingle,10.9995,122.6711,30.62,70,51,4.04,PH,1662874537
121,Kemijärvi,66.7131,27.4306,9.2,87,99,3.08,FI,1662874538
122,Celestún,20.8667,-90.4,25.42,88,53,2.66,MX,1662874538
123,Beringovskiy,63.05,179.3167,7.65,82,100,8.68,RU,1662874539
124,Avera,33.194,-82.5271,23.54,96,100,1.91,US,1662874539
125,Eilat,29.5581,34.9482,28.91,39,0,3.09,IL,1662874347
126,Camaná,-16.6228,-72.7111,15.19,85,82,4.29,PE,1662874541
127,Pevek,69.7008,170.3133,4.82,83,7,2.48,RU,1662874541
128,Leningradskiy,69.3833,178.4167,3.91,92,92,4.06,RU,1662874542
129,Cayenne,4.9333,-52.3333,24.02,100,0,0.51,GF,1662874543
130,Lata,40.1629,-8.3327,17.82,83,60,0.93,PT,1662874543
131,Nanortalik,60.1432,-45.2371,6.22,82,79,3.82,GL,1662874544
132,Ribeira Grande,38.5167,-28.7,22.69,77,100,12.57,PT,1662874545
133,Cabo San Lucas,22.8909,-109.9124,26.95,84,27,3.85,MX,1662874545
134,Ponta do Sol,32.6667,-17.1,25.0,92,93,4.17,PT,1662874545
135,Eyl,7.9803,49.8164,28.62,60,84,11.12,SO,1662874546
136,Tiznit Province,29.5833,-9.5,25.82,42,93,1.08,MA,1662874547
137,Beyneu,45.3167,55.2,16.39,31,0,4.4,KZ,1662874547
138,Takaka,-40.85,172.8,12.53,85,99,1.4,NZ,1662874548
139,Calama,-22.4667,-68.9333,7.27,16,3,5.66,CL,1662874549
140,St. George's,12.0564,-61.7485,27.35,81,33,5.3,GD,1662874549
141,Valcourt,45.5001,-72.3158,16.38,80,100,1.34,CA,1662874550
142,Kidal,18.4411,1.4078,28.41,46,48,2.69,ML,1662874550
143,Trairi,-3.2778,-39.2689,24.65,78,15,5.73,BR,1662874551
144,Ferme-Neuve,46.7001,-75.4493,15.26,91,30,1.58,CA,1662874551
145,Airai,-8.9266,125.4092,24.81,44,9,1.25,TL,1662874552
146,The Valley,18.217,-63.0578,28.39,79,20,6.18,AI,1662874552
147,Esperance,-33.8667,121.9,18.43,61,22,4.03,AU,1662874553
148,Carutapera,-1.195,-46.02,24.15,89,0,2.16,BR,1662874554
149,Mahanoro,-19.9,48.8,23.11,64,3,0.4,MG,1662874554
150,Saint-François,46.4154,3.9054,8.15,100,13,0.51,FR,1662874555
151,Santa Cruz de la Sierra,-17.8,-63.1667,19.7,42,75,2.57,BO,1662874556
152,Pouembout,-21.1333,164.9,24.81,80,36,2.28,NC,1662874556
153,Arraial do Cabo,-22.9661,-42.0278,20.33,91,99,8.67,BR,1662874556
154,Ilulissat,69.2167,-51.1,10.01,81,100,6.69,GL,1662874557
155,Srednekolymsk,67.45,153.6833,6.32,92,100,1.84,RU,1662874558
156,Forsytheganj,52.6333,29.7333,10.83,97,100,6.3,BY,1662874558
157,Nabire,-3.3667,135.4833,28.16,77,91,1.77,ID,1662874559
158,Coari,-4.085,-63.1414,24.88,63,37,1.61,BR,1662874559
159,Kavieng,-2.5744,150.7967,28.79,66,32,6.84,PG,1662874560
160,Baykit,61.67,96.37,8.94,82,97,2.04,RU,1662874561
161,East London,-33.0153,27.9116,17.14,68,53,7.38,ZA,1662874432
162,Antofagasta,-23.65,-70.4,13.6,84,51,2.29,CL,1662874562
163,Narsaq,60.9167,-46.05,4.12,73,98,1.13,GL,1662874562
164,Poplar Bluff,36.757,-90.3929,21.88,90,75,0.0,US,1662874563
165,Shetpe,44.1667,52.1167,15.82,41,0,3.13,KZ,1662874564
166,Deputatsky,69.3,139.9,5.02,55,98,7.11,RU,1662874565
167,Mahbūbnagar,16.7333,77.9833,23.53,90,100,5.21,IN,1662874565
168,Kruisfontein,-34.0033,24.7314,11.6,63,37,6.95,ZA,1662874566
169,Bodden Town,19.2833,-81.25,28.85,75,90,6.27,KY,1662874566
170,Upernavik,72.7868,-56.1549,5.15,97,100,5.77,GL,1662874567
171,Weyburn,49.6668,-103.8511,8.12,53,6,3.09,CA,1662874567
172,Flinders,-34.5833,150.8552,19.58,49,0,1.05,AU,1662874350
173,Hasaki,35.7333,140.8333,27.94,79,83,10.03,JP,1662874351
174,Japura,-0.3167,102.35,32.36,54,100,1.07,ID,1662874569
175,Robertsport,6.7533,-11.3686,24.54,88,100,3.45,LR,1662874569
176,Shenjiamen,29.9576,122.298,25.73,80,56,6.08,CN,1662874570
177,Cherskiy,68.75,161.3,12.72,58,86,3.18,RU,1662874571
178,Puerto Escondido,15.85,-97.0667,26.32,86,99,2.19,MX,1662874572
179,Nago,26.5881,127.9761,30.47,84,100,5.39,JP,1662874572
180,Kargasok,59.0556,80.8572,4.99,90,100,3.67,RU,1662874573
181,Wuda,39.4994,106.7117,25.18,29,0,4.32,CN,1662874574
182,Coquimbo,-29.9533,-71.3436,11.85,82,100,0.0,CL,1662874574
183,Tuatapere,-46.1333,167.6833,10.56,75,26,1.19,NZ,1662874575
184,Namatanai,-3.6667,152.4333,29.01,63,94,6.11,PG,1662874575
185,Longyearbyen,78.2186,15.6401,0.91,75,40,6.69,SJ,1662874576
186,Zhuanghe,39.7008,122.9911,24.19,67,8,3.41,CN,1662874576
187,Kondrovo,54.8064,35.9278,7.27,49,100,4.62,RU,1662874577
188,Souillac,-20.5167,57.5167,24.21,64,40,7.2,MU,1662874577
189,Salalah,17.0151,54.0924,28.05,78,75,1.03,OM,1662874578
190,Várzea Grande,-15.6467,-56.1325,22.93,64,37,2.57,BR,1662874579
191,Alice Springs,-23.7,133.8833,24.75,33,41,5.66,AU,1662874576
192,Orbetello,42.4408,11.2196,17.0,67,1,2.57,IT,1662874580
193,Champerico,14.3,-91.9167,25.75,85,100,2.11,GT,1662874581
194,Isangel,-19.55,169.2667,25.78,76,9,1.41,VU,1662874581
195,Bairiki Village,1.3292,172.9752,29.0,70,20,4.12,KI,1662874582
196,Løding,67.3,14.75,9.35,92,100,3.6,NO,1662874582
197,Kieta,-6.2167,155.6333,28.22,69,15,2.38,PG,1662874583
198,Gawler,-34.6,138.7333,15.7,62,60,3.86,AU,1662874584
199,Luang Prabang,19.8856,102.1347,28.98,70,75,0.6,LA,1662874584
200,Yarmouth,41.7057,-70.2286,20.26,92,0,0.0,US,1662874585
201,Aquiraz,-3.9014,-38.3911,26.05,77,34,6.65,BR,1662874585
202,Norman Wells,65.282,-126.8329,9.02,76,75,6.69,CA,1662874586
203,Eureka,40.8021,-124.1637,17.18,89,92,0.89,US,1662874587
204,Nouadhibou,20.931,-17.0347,22.56,84,4,10.46,MR,1662874588
205,Am Timan,11.0297,20.2827,23.28,90,53,1.2,TD,1662874588
206,Plettenberg Bay,-34.0527,23.3716,14.4,70,50,4.97,ZA,1662874589
207,Dunedin,-45.8742,170.5036,10.45,85,42,1.34,NZ,1662874589
208,Fagersta,60.0042,15.7932,8.88,80,51,0.35,SE,1662874590
209,Freetown,8.484,-13.2299,24.69,84,100,3.08,SL,1662874590
210,Flin Flon,54.7682,-101.865,11.53,51,49,3.49,CA,1662874591
211,Constitución,-35.3333,-72.4167,8.21,88,0,2.61,CL,1662874592
212,Ulladulla,-35.35,150.4667,17.65,52,1,4.29,AU,1662874592
213,Khandyga,62.6667,135.6,7.53,64,95,4.03,RU,1662874593
214,Ancud,-41.8697,-73.8203,8.46,90,97,0.63,CL,1662874593
215,Vostok,46.4856,135.8833,23.53,45,99,1.78,RU,1662874594
216,Porgera,-5.4667,143.2,8.86,98,100,0.49,PG,1662874594
217,Vikhorevka,56.1201,101.1636,14.77,54,100,3.14,RU,1662874595
218,Semey,50.4111,80.2275,18.12,45,75,5.0,KZ,1662874595
219,Labytnangi,66.6572,66.4183,7.63,70,99,4.36,RU,1662874596
220,Port Moresby,-9.4431,147.1797,30.68,74,40,5.14,PG,1662874597
221,Pemba,-12.974,40.5178,24.08,75,5,2.52,MZ,1662874598
222,Ca Mau,9.1769,105.15,24.61,95,100,2.99,VN,1662874381
223,San Cristobal,7.7669,-72.225,22.1,96,61,0.96,VE,1662874600
224,Kavaratti,10.5669,72.642,27.01,83,100,8.83,IN,1662874601
225,Carballo,43.213,-8.691,17.73,91,58,1.28,ES,1662874601
226,Montrose,38.4166,-108.2673,10.85,25,57,1.03,US,1662874602
227,Ayagoz,47.9714,80.4392,19.45,61,100,13.05,KZ,1662874603
228,Green River,41.5286,-109.4662,13.22,37,0,1.99,US,1662874604
229,Ahipara,-35.1667,173.1667,13.74,96,100,7.21,NZ,1662874605
230,Atar,20.5169,-13.0499,31.94,31,59,0.42,MR,1662874605
231,Sitka,57.0531,-135.33,12.94,71,20,3.09,US,1662874606
232,Lavrentiya,65.5833,-171.0,6.12,77,50,2.99,RU,1662874606
233,Lhokseumawe,5.1801,97.1507,30.02,63,85,2.97,ID,1662874607
234,Qui Nhon,13.7667,109.2333,28.65,78,30,3.99,VN,1662874563
235,Pontianak,-0.0333,109.3333,30.99,62,75,1.03,ID,1662874608
236,Kuandian,40.7286,124.7847,24.8,60,8,2.67,CN,1662874608
237,Saldanha,-33.0117,17.9442,11.03,87,95,3.64,ZA,1662874609
238,Savannah Bight,16.45,-85.85,28.93,82,93,10.04,HN,1662874609
239,Aksarka,66.5606,67.7975,7.53,66,89,5.38,RU,1662874610
240,Severo-Kuril'sk,50.6789,156.125,14.56,68,1,5.84,RU,1662874610
241,Tuy Hoa,13.0833,109.3,30.05,68,54,4.38,VN,1662874399
242,Saint-Joseph,-21.3667,55.6167,23.21,71,10,3.44,RE,1662874347
243,Tabou,4.423,-7.3528,23.58,87,100,3.56,CI,1662874612
244,Arecibo,18.4724,-66.7157,27.79,93,46,1.98,PR,1662874613
245,Harper,4.375,-7.7169,23.59,87,99,3.84,LR,1662874614
246,Mumbwa,-14.9783,27.0619,22.58,26,0,2.78,ZM,1662874615
247,Mangit,40.5971,70.9607,25.78,25,48,9.49,UZ,1662874616
248,Farafangana,-22.8167,47.8333,21.87,73,5,2.22,MG,1662874616
249,Bethel,41.3712,-73.414,20.5,79,0,0.0,US,1662874617
250,Nakamura,32.9833,132.9333,28.84,66,38,3.71,JP,1662874617
251,Charters Towers,-20.1,146.2667,30.73,25,0,1.84,AU,1662874618
252,Cumanayagua,22.1494,-80.2022,23.86,92,75,2.49,CU,1662874618
253,Aktobe,50.2797,57.2072,10.05,76,0,5.0,KZ,1662874619
254,Pangai,-19.8,-174.35,24.58,76,96,7.12,TO,1662874619
255,Popondetta,-8.7537,148.2534,31.1,52,5,3.19,PG,1662874620
256,Mariehamn,60.0973,19.9348,9.92,93,100,1.03,AX,1662874621
257,Glodeanu-Siliştea,44.8333,26.8,21.27,58,48,1.46,RO,1662874622
258,Vanavara,60.34,102.2797,13.11,53,100,4.9,RU,1662874622
259,Havelock,34.8791,-76.9013,27.99,89,100,3.47,US,1662874623
260,Preobrazheniye,42.9019,133.9064,20.0,62,100,1.48,RU,1662874623
261,Camopi,3.1655,-52.3158,20.76,99,41,0.93,GF,1662874624
262,Uusikaupunki,60.8004,21.4084,11.14,65,91,2.0,FI,1662874625
263,Goundam,16.4145,-3.6708,28.98,60,45,5.77,ML,1662874625
264,Laas,46.6166,10.7002,12.49,91,77,2.83,IT,1662874625
265,Panguna,-6.3164,155.4848,24.84,71,24,1.4,PG,1662874626
266,Marawi,7.9986,124.2928,28.65,58,81,2.24,PH,1662874627
267,Samarai,-10.6167,150.6667,27.79,77,20,4.5,PG,1662874627
268,Alihe,50.5667,123.7167,21.87,51,96,3.12,CN,1662874628
269,Yar-Sale,66.8333,70.8333,7.5,67,98,6.11,RU,1662874628
270,Glyadyanskoye,54.9075,65.0883,12.84,44,69,6.72,RU,1662874629
271,Sioux Lookout,50.1001,-91.917,9.04,93,0,2.06,CA,1662874630
272,Kičevo,41.5144,20.9633,19.67,59,46,0.84,MK,1662874631
273,Vestmanna,62.1564,-7.1664,11.51,94,100,6.17,FO,1662874631
274,Krasnosel'kup,65.7,82.4667,8.39,48,67,3.61,RU,1662874631
275,Clyde River,70.4692,-68.5914,3.13,100,100,0.0,CA,1662874632
276,Poso,-1.3959,120.7524,27.73,81,99,2.03,ID,1662874632
277,Tibú,8.639,-72.7358,22.84,99,91,1.09,CO,1662874633
278,Severodvinsk,64.5635,39.8302,9.06,82,90,3.44,RU,1662874633
279,Goderich,43.7501,-81.7165,21.62,78,100,3.6,CA,1662874634
280,Sechura,-5.5569,-80.8222,16.38,85,31,4.03,PE,1662874635
281,Kushiro,42.975,144.3747,20.53,77,20,4.12,JP,1662874419
282,College,64.8569,-147.8028,8.97,84,75,0.0,US,1662874636
283,Hervey Bay,-25.2986,152.8535,21.03,53,22,3.53,AU,1662874636
284,Syracuse,37.0881,15.2792,20.77,69,0,2.27,IT,1662874637
285,Inta,66.0317,60.1659,6.88,88,100,8.01,RU,1662874637
286,Pasni,25.2631,63.471,29.82,64,34,5.68,PK,1662874638
287,Pedernales,18.0384,-71.744,28.09,70,57,1.74,DO,1662874638
288,Scarborough,54.2797,-0.4044,14.32,92,56,1.33,GB,1662874639
289,Ust-Tsilma,65.441,52.1498,8.88,89,100,2.73,RU,1662874639
290,Urengoy,65.9667,78.3667,6.65,62,93,1.73,RU,1662874640
291,La Colmena,-25.8833,-56.8167,8.66,65,28,1.57,PY,1662874640
292,Kloulklubed,7.0419,134.2556,28.28,66,81,2.19,PW,1662874641
293,Saint George,37.1041,-113.5841,24.24,59,0,1.54,US,1662874359
294,Nānākuli,21.3906,-158.1547,26.97,69,100,2.06,US,1662874642
295,Jesup,31.6074,-81.8854,23.86,94,100,0.0,US,1662874643
296,Fairbanks,64.8378,-147.7164,8.98,85,0,0.0,US,1662874643
297,Cabedelo,-6.9811,-34.8339,22.37,86,23,4.55,BR,1662874644
298,Inhambane,-23.865,35.3833,23.03,67,0,4.61,MZ,1662874644
299,Port Blair,11.6667,92.75,28.95,72,59,6.88,IN,1662874645
300,Mercedes,-34.6515,-59.4307,6.69,53,0,3.45,AR,1662874646
301,Meulaboh,4.1363,96.1285,29.47,62,72,2.79,ID,1662874646
302,Marystown,47.1666,-55.1483,14.09,83,100,15.57,CA,1662874647
303,Auki,-8.7676,160.7034,27.02,78,38,0.54,SB,1662874648
304,Ulaanbaatar,47.9077,106.8832,20.07,42,20,4.0,MN,1662874439
305,Rondonópolis,-16.4708,-54.6356,25.04,41,48,1.32,BR,1662874649
306,Abu Samrah,35.3029,37.1841,26.86,25,0,2.87,SY,1662874649
307,De Panne,51.0792,2.5917,14.47,95,13,1.03,BE,1662874650
308,Gizo Government Station,-8.103,156.8419,29.03,65,64,2.17,SB,1662874651
309,Marzuq,14.4,46.4667,29.96,30,94,0.43,YE,1662874651
310,Maryville,35.7565,-83.9705,21.15,95,100,0.0,US,1662874642
311,Emba,48.8264,58.1442,12.39,58,99,6.45,KZ,1662874652
312,Geraldton,-28.7667,114.6,23.23,46,75,3.6,AU,1662874653
313,Ouégoa,-20.35,164.4333,25.55,77,16,2.06,NC,1662874653
314,Vardø,70.3705,31.1107,6.99,93,100,1.54,NO,1662874654
315,Korla,41.7597,86.1469,32.85,13,4,4.78,CN,1662874654
316,San Joaquin,37.9333,-121.3011,25.13,56,0,3.6,US,1662874655
317,Key West,24.5557,-81.7826,28.0,94,40,17.49,US,1662874655
318,Marsh Harbour,26.5412,-77.0636,29.06,73,7,3.42,BS,1662874656
319,Kununurra,-15.7667,128.7333,35.99,28,35,2.57,AU,1662874423
320,Mayo,38.8876,-76.5119,23.97,89,100,4.12,US,1662874658
321,Fortuna,40.5982,-124.1573,17.03,88,90,1.35,US,1662874658
322,Saint-Ambroise,48.5501,-71.3324,17.78,94,0,1.54,CA,1662874659
323,Kenai,60.5544,-151.2583,10.08,90,100,2.57,US,1662874659
324,Sinnamary,5.3833,-52.95,25.35,84,96,3.04,GF,1662874660
325,Laguna,38.421,-121.4238,24.69,59,0,4.12,US,1662874661
326,Camaçari,-12.6975,-38.3242,20.87,94,8,1.05,BR,1662874661
327,Aktau,43.65,51.2,15.32,42,10,4.84,KZ,1662874662
328,Xining,36.6167,101.7667,21.1,37,0,1.51,CN,1662874503
329,Makubetsu,45.3714,141.8211,22.84,60,20,5.14,JP,1662874663
330,Tonj,7.2737,28.6822,23.22,93,92,2.29,SS,1662874663
331,Mahibadhoo,3.7833,72.9667,27.32,79,63,5.74,MV,1662874664
332,Pacific Grove,36.6177,-121.9166,22.12,80,0,2.57,US,1662874665
333,Bathsheba,13.2167,-59.5167,28.34,83,40,4.63,BB,1662874665
334,Moose Factory,51.2585,-80.6094,14.0,94,100,3.09,CA,1662874666
335,Coffs Harbour,-30.3,153.1333,21.74,46,53,4.12,AU,1662874666
336,Berlevåg,70.8578,29.0864,7.0,87,100,3.6,NO,1662874667
337,Hersbruck,49.5125,11.4339,13.75,90,100,3.41,DE,1662874668
338,Sayyan,15.1718,44.3244,20.79,28,59,6.42,YE,1662874669
339,Trojes,41.756,19.962,19.27,69,71,1.63,AL,1662874669
340,Zelenoborskiy,66.845,32.3622,9.96,84,96,0.46,RU,1662874669
341,Katobu,-4.9408,122.5276,32.23,43,47,2.52,ID,1662874670
342,Beloha,-25.1667,45.05,25.53,41,0,1.92,MG,1662874670
343,Paamiut,61.994,-49.6678,6.22,86,100,6.55,GL,1662874671
344,Bengkulu,-3.8004,102.2655,28.26,69,94,2.99,ID,1662874671
345,Poum,-20.2333,164.0167,25.1,80,1,4.46,NC,1662874672
346,Voyvozh,62.892,54.9635,6.23,95,98,1.69,RU,1662874673
347,Mosquera,4.7059,-74.2302,11.05,76,40,2.57,CO,1662874673
348,Kota Belud,6.351,116.4305,28.38,81,99,2.28,MY,1662874673
349,Taldan,53.6667,124.8,13.12,54,99,0.37,RU,1662874674
350,Nālūt,30.3333,10.85,25.6,27,0,3.3,LY,1662874675
351,Thoen,17.6129,99.2161,25.12,96,100,0.07,TH,1662874676
352,Yangambi,0.8102,24.4336,22.05,95,48,0.45,CD,1662874677
353,Estrela,-28.0611,-50.9383,3.56,86,0,1.56,BR,1662874677
354,Linxia Chengguanzhen,35.6003,103.2064,23.33,32,16,1.28,CN,1662874677
355,Grand Gaube,-20.0064,57.6608,24.22,61,5,5.36,MU,1662874678
356,Gao,16.6362,1.637,28.79,55,76,3.95,ML,1662874679
357,Torit,4.4133,32.5678,24.03,79,93,0.82,SS,1662874679
358,Comalcalco,18.2667,-93.2167,25.68,88,99,0.65,MX,1662874680
359,Myanaung,18.2833,95.3167,26.29,85,100,3.24,MM,1662874680
360,Vanimo,-2.6741,141.3028,27.11,82,99,1.72,PG,1662874681
361,Nishihara,26.1842,127.7558,30.6,77,75,8.75,JP,1662874681
362,Dwārka,22.2394,68.9678,30.09,75,79,3.14,IN,1662874682
363,Río Gallegos,-51.6226,-69.2181,3.03,81,0,1.54,AR,1662874682
364,Port Hardy,50.6996,-127.4199,10.1,100,40,1.03,CA,1662874683
365,Ochakiv,46.6128,31.5498,16.9,87,100,4.41,UA,1662874683
366,Kaitangata,-46.2817,169.8464,10.75,78,4,6.35,NZ,1662874684
367,La Rioja,42.25,-2.5,10.88,57,0,2.74,ES,1662874684
368,Los Llanos de Aridane,28.6585,-17.9182,20.86,77,40,3.6,ES,1662874487
369,Shimokizukuri,40.8061,140.3861,27.19,67,76,3.86,JP,1662874685
370,Bukachacha,52.9833,116.9167,12.78,50,100,1.97,RU,1662874686
371,Bānsgāon,26.5586,83.3481,33.1,57,14,7.07,IN,1662874552
372,Lake Havasu City,34.4839,-114.3224,32.0,46,0,2.57,US,1662874687
373,Lockhart,28.6194,-81.4426,25.05,96,0,0.0,US,1662874687
374,Shingū,33.7333,135.9833,27.78,64,14,3.36,JP,1662874642
375,Erciş,39.0287,43.3586,21.05,23,0,1.13,TR,1662874688
376,Maurānwān,26.4333,80.8833,32.02,57,6,6.26,IN,1662874688
377,Broadstairs,51.3591,1.4394,14.33,79,8,1.98,GB,1662874689
378,Chokurdakh,70.6333,147.9167,5.89,72,100,3.91,RU,1662874690
379,Boyolangu,-8.1181,111.8935,25.52,86,93,4.1,ID,1662874690
380,Poronaysk,49.2167,143.1167,21.23,68,2,2.08,RU,1662874691
381,Ürümqi,43.801,87.6005,27.53,28,0,4.0,CN,1662874691
382,Makakilo City,21.3469,-158.0858,26.18,71,100,2.57,US,1662874692
383,Gariāband,20.635,82.0614,24.26,93,100,1.47,IN,1662874692
384,Egvekinot,66.3167,-179.1667,4.43,75,74,1.87,RU,1662874693
385,Riviere-au-Renard,48.9957,-64.3971,11.16,87,0,2.07,CA,1662874694
386,Necochea,-38.5473,-58.7368,5.71,63,0,4.28,AR,1662874694
387,Ixtapa,20.7,-105.2,26.79,100,100,0.0,MX,1662874695
388,Povenets,62.8487,34.8262,10.77,66,83,2.54,RU,1662874695
389,Olafsvik,64.8945,-23.7142,8.5,84,3,7.21,IS,1662874696
390,Kwang Binh,17.4833,106.6,29.79,67,37,2.9,VN,1662874696
391,San Felipe,10.3399,-68.7425,21.85,96,98,1.33,VE,1662874697
392,Sona,45.4388,10.8255,17.75,88,40,2.57,IT,1662874697
393,Taos,36.4072,-105.5731,16.26,66,100,5.14,US,1662874698
394,Tambovka,50.0969,128.0489,23.2,61,94,2.08,RU,1662874698
395,Begoro,6.3871,-0.3774,19.63,96,97,1.11,GH,1662874699
396,Pinotepa Nacional,16.3167,-98.0167,23.18,96,99,1.49,MX,1662874699
397,Surgut,61.25,73.4167,8.94,66,40,3.13,RU,1662874700
398,Biltine,14.5333,20.9167,26.1,75,62,2.06,TD,1662874700
399,Buin,-33.7333,-70.75,12.08,94,2,0.82,CL,1662874700
400,Shimoda,34.6667,138.95,26.72,66,15,7.69,JP,1662874637
401,Vieques,18.425,-65.8329,27.01,89,20,0.0,PR,1662874701
402,Careiro da Várzea,-3.2003,-59.8119,25.35,59,23,2.16,BR,1662874702
403,Waipawa,-41.4122,175.5153,10.51,95,100,1.56,NZ,1662874703
404,Mayumba,-3.432,10.6554,23.24,88,89,2.85,GA,1662874704
405,Klyuchi,52.2667,79.1667,20.27,22,100,6.86,RU,1662874704
406,Alexandria,31.2156,29.9553,27.39,56,0,3.65,EG,1662874705
407,Coahuayana Viejo,18.7333,-103.6833,25.41,94,100,1.54,MX,1662874706
408,Caloundra,-26.8,153.1333,24.51,54,9,1.34,AU,1662874706
409,Viedma,-40.8135,-62.9967,8.46,36,0,4.43,AR,1662874707
410,Preeceville,51.95,-102.6677,10.06,37,15,4.02,CA,1662874708
411,Labuhan,-6.8844,112.2051,30.83,57,100,4.16,ID,1662874708
412,Cumberland,35.0502,-78.8664,24.71,98,100,1.54,US,1662874709
413,Gayéri,12.6497,0.4931,22.45,95,99,2.98,BF,1662874710
414,Ulsteinvik,62.3432,5.8487,11.06,93,80,1.34,NO,1662874710
415,Okha,53.5739,142.9478,12.93,70,89,4.13,RU,1662874711
416,Shache,38.4167,77.2406,31.94,9,100,4.11,CN,1662874711
417,Chimbote,-9.0853,-78.5783,15.63,87,33,5.12,PE,1662874712
418,Córdoba,-31.4135,-64.1811,11.9,39,0,1.54,AR,1662874712
419,Rocha,-34.4833,-54.3333,3.51,89,0,1.41,UY,1662874713
420,Saint-Augustin,51.226,-58.6502,10.59,93,0,2.37,CA,1662874713
421,Mandera,3.9366,41.867,27.28,55,58,7.01,KE,1662874714
422,Kapuskasing,49.4169,-82.4331,12.05,94,100,1.54,CA,1662874714
423,Taltal,-25.4,-70.4833,11.92,81,46,0.77,CL,1662874715
424,Novaya Igirma,57.1334,103.9112,15.07,50,100,2.9,RU,1662874715
425,Klaksvík,62.2266,-6.589,12.51,94,88,9.55,FO,1662874716
426,Bahía Honda,22.9036,-83.1592,25.83,87,87,2.06,CU,1662874716
427,San Juan,-31.5375,-68.5364,13.3,23,52,2.64,AR,1662874716
428,Ust'-Kut,56.7938,105.7672,15.28,48,94,1.96,RU,1662874717
429,Paratinga,-12.6906,-43.1842,22.12,39,6,1.94,BR,1662874717
430,Hobyo,5.3505,48.5268,27.54,69,40,10.67,SO,1662874718
431,Makkah al Mukarramah,21.4267,39.8261,33.83,39,35,2.9,SA,1662874718
432,Springfield,37.2153,-93.2982,19.92,91,75,5.14,US,1662874719
433,Parrita,9.5201,-84.3225,24.24,91,100,0.88,CR,1662874719
434,Zatoka,46.0725,30.4654,20.55,86,97,6.97,UA,1662874720
435,Turaif,31.6725,38.6637,27.14,44,0,4.12,SA,1662874720
436,Grindavik,63.8424,-22.4338,8.97,87,0,10.8,IS,1662874720
437,Evensk,61.95,159.2333,10.55,82,100,2.59,RU,1662874721
438,Roald,62.5833,6.1333,11.06,100,40,2.06,NO,1662874722
439,Tabuk,17.4189,121.4443,30.98,66,45,1.61,PH,1662874722
440,Dzhubga,44.3211,38.7039,21.71,54,24,2.04,RU,1662874722
441,Sainte-Suzanne,-20.9061,55.6089,24.12,64,100,7.72,RE,1662874723
442,Port-Cartier,50.0334,-66.8654,13.75,95,22,0.73,CA,1662874724
443,Seoul,37.5683,126.9778,25.78,53,0,2.57,KR,1662874121
444,Ayan,56.45,138.1667,13.62,60,78,2.52,RU,1662874725
445,Ţahţā,26.7693,31.5021,27.45,42,0,6.63,EG,1662874725
446,Te Anau,-45.4167,167.7167,9.56,77,59,0.97,NZ,1662874726
447,Isla Mujeres,21.2311,-86.731,27.03,84,98,5.1,MX,1662874726
448,Santa Rosa,14.3122,121.1114,31.68,65,97,6.02,PH,1662874559
449,Aswān,24.0934,32.907,32.3,25,43,6.48,EG,1662874726
450,Acapulco de Juárez,16.8634,-99.8901,23.9,94,100,4.63,MX,1662874727
451,Beni,0.5,29.4667,19.97,80,68,0.7,CD,1662874728
452,Ottersberg,53.1,9.15,14.14,96,11,2.11,DE,1662874728
453,Katsuura,35.1333,140.3,25.69,77,75,9.73,JP,1662874729
454,Sheffield,53.383,-1.4659,14.31,93,85,0.59,GB,1662874726
455,Salinas,36.6777,-121.6555,24.34,74,0,2.57,US,1662874730
456,Kerewan,13.4898,-16.0888,23.2,88,100,2.28,GM,1662874730
457,Powell River,49.8496,-124.5361,20.04,62,0,1.11,CA,1662874731
458,Nuuk,64.1835,-51.7216,11.34,58,75,13.38,GL,1662874731
459,Bako,5.7833,36.5667,20.68,63,100,0.98,ET,1662874732
460,Raudeberg,61.9875,5.1352,10.37,75,11,1.48,NO,1662874732
461,Ust-Kuyga,70.0167,135.6,7.52,67,96,2.54,RU,1662874732
462,Muravlenko,63.7898,74.523,7.23,65,31,1.83,RU,1662874733
463,Lompoc,34.6391,-120.4579,23.9,81,0,0.0,US,1662874733
464,Dalvik,65.9702,-18.5286,7.96,99,100,4.28,IS,1662874734
465,Aldan,58.6031,125.3894,9.09,59,96,2.63,RU,1662874735
466,Bourail,-21.5667,165.4833,24.18,80,48,2.39,NC,1662874736
467,Ville-Marie,47.3335,-79.433,17.37,84,48,1.19,CA,1662874737
468,Kungurtug,50.5994,97.5228,21.14,31,65,1.83,RU,1662874737
469,Touros,-5.1989,-35.4608,23.5,80,6,5.41,BR,1662874738
470,Balkhash,46.844,74.9804,17.34,42,0,11.0,KZ,1662874739
471,Bambous Virieux,-20.3428,57.7575,24.14,64,40,7.2,MU,1662874739
472,Srandakan,-7.9386,110.2506,26.66,81,92,6.05,ID,1662874175
473,Nicoya,10.1483,-85.452,24.12,95,100,0.1,CR,1662874741
474,Codrington,-38.2667,141.9667,10.23,87,100,5.79,AU,1662874741
475,Springbok,-29.6643,17.8865,11.34,59,96,1.68,ZA,1662874742
476,Krasnozerskoye,53.9828,79.2374,19.34,22,100,4.88,RU,1662874743
477,Lamu,-2.2717,40.902,26.12,71,17,5.33,KE,1662874743
478,Tacoronte,28.4769,-16.4102,20.19,91,20,7.2,ES,1662874744
479,Tsumeb,-19.2333,17.7167,21.44,16,0,2.99,NA,1662874744
480,Tonekābon,36.8163,50.8738,22.97,66,60,1.63,IR,1662874745
481,Valley Station,38.1112,-85.8702,23.36,91,100,2.57,US,1662874745
482,San Andrés,12.5847,-81.7006,29.01,74,75,3.09,CO,1662874745
483,Woodward,36.4337,-99.3904,13.87,96,100,4.63,US,1662874746
484,Rincon,32.296,-81.2354,26.59,96,0,2.06,US,1662874746
485,Pimenta Bueno,-11.6725,-61.1936,24.84,63,18,1.74,BR,1662874747
486,Murray Bridge,-35.1167,139.2667,14.51,61,94,4.26,AU,1662874500
487,Mbamba,9.9833,13.1,20.58,96,96,0.89,NG,1662874748
488,Hamilton,39.1834,-84.5333,21.97,90,20,3.6,US,1662874748
489,Sistranda,63.7256,8.834,8.98,79,6,2.39,NO,1662874751
490,Rzhev,56.2624,34.3282,10.0,53,100,4.24,RU,1662874745
491,Whitecourt,54.1502,-115.6855,12.57,64,0,0.73,CA,1662874752
492,Griffith,41.5284,-87.4237,22.16,92,0,0.0,US,1662874753
493,Aguadilla,18.4275,-67.1541,26.47,92,54,2.41,PR,1662874753
494,Zyryanka,65.75,150.85,7.38,82,100,0.9,RU,1662874754
495,Swellendam,-34.0226,20.4417,12.48,81,70,1.42,ZA,1662874755
496,Hidalgotitlán,17.7833,-94.6333,23.66,97,100,2.16,MX,1662874755
497,Lewiston,44.1003,-70.2148,19.38,95,0,1.54,US,1662874756
498,Mount Vernon,40.9126,-73.8371,23.12,79,75,3.6,US,1662874757
499,Lábrea,-7.2586,-64.7981,24.23,67,33,1.05,BR,1662874757
500,Christchurch,-43.5333,172.6333,12.17,91,100,3.09,NZ,1662874570
501,Kalabo,-14.97,22.6814,21.41,24,0,3.3,ZM,1662874758
502,Lodwar,3.1191,35.5973,28.44,48,55,5.16,KE,1662874759
503,Kuybysheve,47.358,36.6491,16.1,43,95,9.05,UA,1662874760
504,Labuan,5.2767,115.2417,27.2,83,40,2.68,MY,1662874761
505,Saravan,39.7196,45.6483,18.17,45,0,2.06,AM,1662874761
506,San Patricio,28.017,-97.5169,29.35,67,26,3.05,US,1662874762
507,Banjar,-8.19,114.9675,28.13,81,75,0.29,ID,1662874763
508,Bilma,18.6853,12.9164,30.69,14,28,1.78,NE,1662874763
509,Poltavka,54.3663,71.7632,15.12,39,93,9.56,RU,1662874764
510,Lagoa,39.05,-27.9833,21.9,83,100,14.06,PT,1662874765
511,Kardymovo,54.8902,32.4311,7.16,86,100,6.11,RU,1662874766
512,Pinawa,50.1489,-95.8811,8.04,69,10,1.71,CA,1662874766
513,Östersund,63.1792,14.6357,6.25,100,20,3.58,SE,1662874767
514,Ambulu,-8.345,113.6058,27.13,80,100,3.7,ID,1662874768
515,Umluj,25.0213,37.2685,32.27,54,0,5.02,SA,1662874768
516,Levice,48.2156,18.6071,16.94,80,36,4.95,SK,1662874769
517,Marcala,14.15,-88.0333,17.89,96,100,0.42,HN,1662874770
518,Salme,28.0369,85.0942,24.16,73,76,1.79,NP,1662874770
519,Neiafu,-18.65,-173.9833,26.38,78,75,4.12,TO,1662874771
520,Slavuta,50.3016,26.8651,11.87,94,99,3.3,UA,1662874771
521,Rosarito,32.3333,-117.0333,24.71,84,96,1.85,MX,1662874772
522,Zabid,14.1951,43.3152,34.08,52,62,2.28,YE,1662874772
523,Gumdag,39.2061,54.5906,25.13,20,49,8.38,TM,1662874773
524,Marrakesh,31.6315,-8.0083,25.04,65,40,1.54,MA,1662874773
525,Smithers,54.7804,-127.1743,10.18,87,20,1.03,CA,1662874774
526,Sălătrucu,45.3333,24.5167,15.13,74,0,2.61,RO,1662874775
527,Nortelândia,-14.4547,-56.8028,23.3,44,6,0.29,BR,1662874775
528,Larsnes,62.2028,5.5773,11.36,93,33,1.06,NO,1662874776
529,Athabasca,54.7169,-113.2854,7.23,56,0,1.32,CA,1662874777
530,Tumsar,21.3833,79.7333,28.77,79,100,3.71,IN,1662874777
531,Cap Malheureux,-19.9842,57.6142,24.15,59,3,4.47,MU,1662874778
532,Yumen,40.2833,97.2,31.36,6,0,8.46,CN,1662874779
533,Maragogi,-9.0122,-35.2225,22.42,83,33,3.65,BR,1662874779
534,Caravelas,-17.7125,-39.2481,19.88,83,24,3.41,BR,1662874780
535,Mananjary,-21.2167,48.3333,22.37,71,10,1.7,MG,1662874780
536,Amahai,-3.3333,128.9167,27.12,79,99,2.06,ID,1662874781
537,São Filipe,14.8961,-24.4956,25.91,82,16,0.51,CV,1662874782
538,Port Augusta,-32.5,137.7667,17.7,49,1,5.69,AU,1662874782
539,La Ronge,55.1001,-105.2842,13.14,58,0,2.57,CA,1662874783
540,Aberdeen,57.1437,-2.0981,9.16,93,74,0.51,GB,1662874784
